[
  {
    "id":0,
    "streetName":"rauracherstras",
    "longitude":0.0,
    "latitude":0.0,
    "area":null,
    "speedlimit":0.0,
    "density":0.21572983,
    "dangerLevel":null,
    "speedingCarsCount":null,
    "totalCarsCount":35349
  },
  {
    "id":1,
    "streetName":"weilstrasse",
    "longitude":7.6425212,
    "latitude":47.592155,
    "area":"secondary",
    "speedlimit":20.0,
    "density":0.7582309,
    "dangerLevel":94.3642,
    "speedingCarsCount":117240,
    "totalCarsCount":124242
  },
  {
    "id":2,
    "streetName":"rheinweg",
    "longitude":7.5859461,
    "latitude":47.5783887,
    "area":"footway",
    "speedlimit":-1.0,
    "density":0.107349224,
    "dangerLevel":null,
    "speedingCarsCount":17590,
    "totalCarsCount":17590
  },
  {
    "id":3,
    "streetName":"wyhlenweg",
    "longitude":7.6727792,
    "latitude":47.5664189,
    "area":"residential",
    "speedlimit":-1.0,
    "density":0.036208242,
    "dangerLevel":null,
    "speedingCarsCount":5933,
    "totalCarsCount":5933
  },
  {
    "id":4,
    "streetName":"schaeferstras",
    "longitude":0.0,
    "latitude":0.0,
    "area":null,
    "speedlimit":0.0,
    "density":0.020017365,
    "dangerLevel":null,
    "speedingCarsCount":null,
    "totalCarsCount":3280
  },
  {
    "id":5,
    "streetName":"theaterstrasse",
    "longitude":7.5898645,
    "latitude":47.5532272,
    "area":"residential",
    "speedlimit":30.0,
    "density":0.43963748,
    "dangerLevel":31.9207,
    "speedingCarsCount":22995,
    "totalCarsCount":72038
  },
  {
    "id":6,
    "streetName":"wenkenstr,",
    "longitude":7.6518984,
    "latitude":47.5795548,
    "area":"residential",
    "speedlimit":-1.0,
    "density":null,
    "dangerLevel":null,
    "speedingCarsCount":null,
    "totalCarsCount":null
  },
  {
    "id":7,
    "streetName":"birsstrasse",
    "longitude":7.6165125,
    "latitude":47.5549262,
    "area":"primary",
    "speedlimit":50.0,
    "density":0.3695401,
    "dangerLevel":25.7167,
    "speedingCarsCount":15572,
    "totalCarsCount":60552
  },
  {
    "id":8,
    "streetName":"schwarzwaldst",
    "longitude":0.0,
    "latitude":0.0,
    "area":null,
    "speedlimit":0.0,
    "density":0.3708888,
    "dangerLevel":null,
    "speedingCarsCount":null,
    "totalCarsCount":60773
  },
  {
    "id":9,
    "streetName":"colmarerstr",
    "longitude":7.5738565,
    "latitude":47.5619061,
    "area":"residential",
    "speedlimit":50.0,
    "density":0.07943476,
    "dangerLevel":0.145974,
    "speedingCarsCount":19,
    "totalCarsCount":13016
  },
  {
    "id":11,
    "streetName":"amerbachstrasse",
    "longitude":7.5949818,
    "latitude":47.5693137,
    "area":"residential",
    "speedlimit":-1.0,
    "density":0.114544496,
    "dangerLevel":null,
    "speedingCarsCount":18769,
    "totalCarsCount":18769
  },
  {
    "id":12,
    "streetName":"elisabethens",
    "longitude":0.0,
    "latitude":0.0,
    "area":null,
    "speedlimit":0.0,
    "density":0.34278518,
    "dangerLevel":null,
    "speedingCarsCount":null,
    "totalCarsCount":56168
  },
  {
    "id":13,
    "streetName":"bettingerstr",
    "longitude":7.6506725,
    "latitude":47.5785031,
    "area":"secondary",
    "speedlimit":40.0,
    "density":0.37632647,
    "dangerLevel":52.7553,
    "speedingCarsCount":32531,
    "totalCarsCount":61664
  },
  {
    "id":14,
    "streetName":"talweg",
    "longitude":7.6939048,
    "latitude":47.5124634,
    "area":"residential",
    "speedlimit":-1.0,
    "density":0.022513432,
    "dangerLevel":null,
    "speedingCarsCount":3689,
    "totalCarsCount":3689
  },
  {
    "id":15,
    "streetName":"gasse",
    "longitude":7.476732,
    "latitude":47.4254482,
    "area":"residential",
    "speedlimit":-1.0,
    "density":0.06334764,
    "dangerLevel":null,
    "speedingCarsCount":10380,
    "totalCarsCount":10380
  },
  {
    "id":16,
    "streetName":"reinacherstras",
    "longitude":0.0,
    "latitude":0.0,
    "area":null,
    "speedlimit":0.0,
    "density":0.74222314,
    "dangerLevel":null,
    "speedingCarsCount":null,
    "totalCarsCount":121619
  },
  {
    "id":17,
    "streetName":"hegenheimerstr",
    "longitude":7.5616069,
    "latitude":47.5645694,
    "area":"tertiary",
    "speedlimit":50.0,
    "density":0.31386983,
    "dangerLevel":0.0330546,
    "speedingCarsCount":17,
    "totalCarsCount":51430
  },
  {
    "id":18,
    "streetName":"lothringerstrass",
    "longitude":0.0,
    "latitude":0.0,
    "area":null,
    "speedlimit":0.0,
    "density":0.13380511,
    "dangerLevel":null,
    "speedingCarsCount":null,
    "totalCarsCount":21925
  },
  {
    "id":19,
    "streetName":"giornicostrasse",
    "longitude":7.5960754,
    "latitude":47.5268222,
    "area":"residential",
    "speedlimit":50.0,
    "density":0.27125362,
    "dangerLevel":38.2635,
    "speedingCarsCount":17007,
    "totalCarsCount":44447
  },
  {
    "id":20,
    "streetName":"zwingerstrasse",
    "longitude":7.592716,
    "latitude":47.5435315,
    "area":"residential",
    "speedlimit":-1.0,
    "density":0.20613614,
    "dangerLevel":null,
    "speedingCarsCount":33777,
    "totalCarsCount":33777
  },
  {
    "id":21,
    "streetName":"türkheimerstr",
    "longitude":7.5745574,
    "latitude":47.5576127,
    "area":"residential",
    "speedlimit":-1.0,
    "density":0.20622769,
    "dangerLevel":null,
    "speedingCarsCount":33792,
    "totalCarsCount":33792
  },
  {
    "id":22,
    "streetName":"klybeckstrasse",
    "longitude":7.5901856,
    "latitude":47.5706523,
    "area":"secondary",
    "speedlimit":50.0,
    "density":0.88451123,
    "dangerLevel":2.49769,
    "speedingCarsCount":3620,
    "totalCarsCount":144934
  },
  {
    "id":23,
    "streetName":"suedquaistrass",
    "longitude":0.0,
    "latitude":0.0,
    "area":null,
    "speedlimit":0.0,
    "density":0.11333002,
    "dangerLevel":null,
    "speedingCarsCount":null,
    "totalCarsCount":18570
  },
  {
    "id":24,
    "streetName":"inzlingerstras",
    "longitude":0.0,
    "latitude":0.0,
    "area":null,
    "speedlimit":0.0,
    "density":0.6903855,
    "dangerLevel":null,
    "speedingCarsCount":null,
    "totalCarsCount":113125
  },
  {
    "id":25,
    "streetName":"1altrheinweg",
    "longitude":0.0,
    "latitude":0.0,
    "area":null,
    "speedlimit":0.0,
    "density":0.02902518,
    "dangerLevel":null,
    "speedingCarsCount":null,
    "totalCarsCount":4756
  },
  {
    "id":26,
    "streetName":"wiesendamm",
    "longitude":7.5938067,
    "latitude":47.5796303,
    "area":"residential",
    "speedlimit":-1.0,
    "density":0.092067674,
    "dangerLevel":null,
    "speedingCarsCount":15086,
    "totalCarsCount":15086
  },
  {
    "id":27,
    "streetName":"salinenstrasse",
    "longitude":7.6088063,
    "latitude":47.5465984,
    "area":"residential",
    "speedlimit":30.0,
    "density":0.0058648437,
    "dangerLevel":7.38814,
    "speedingCarsCount":71,
    "totalCarsCount":961
  },
  {
    "id":28,
    "streetName":"walkeweg",
    "longitude":7.6086357,
    "latitude":47.5370888,
    "area":"tertiary",
    "speedlimit":50.0,
    "density":0.2718334,
    "dangerLevel":0.592699,
    "speedingCarsCount":264,
    "totalCarsCount":44542
  },
  {
    "id":29,
    "streetName":"dorfstrasse",
    "longitude":7.5926515,
    "latitude":47.5825978,
    "area":"residential",
    "speedlimit":30.0,
    "density":0.07278875,
    "dangerLevel":6.85,
    "speedingCarsCount":817,
    "totalCarsCount":11927
  },
  {
    "id":30,
    "streetName":"wasserstelzen",
    "longitude":0.0,
    "latitude":0.0,
    "area":null,
    "speedlimit":0.0,
    "density":0.05662229,
    "dangerLevel":null,
    "speedingCarsCount":null,
    "totalCarsCount":9278
  },
  {
    "id":31,
    "streetName":"fussgängerbrüc",
    "longitude":0.0,
    "latitude":0.0,
    "area":null,
    "speedlimit":0.0,
    "density":0.090285644,
    "dangerLevel":null,
    "speedingCarsCount":null,
    "totalCarsCount":14794
  },
  {
    "id":32,
    "streetName":"buschweilerweg",
    "longitude":7.5621411,
    "latitude":47.560284,
    "area":"unclassified",
    "speedlimit":30.0,
    "density":0.037715644,
    "dangerLevel":33.3657,
    "speedingCarsCount":2062,
    "totalCarsCount":6180
  },
  {
    "id":33,
    "streetName":"p.rot-strasse",
    "longitude":7.6041504,
    "latitude":47.5611484,
    "area":"residential",
    "speedlimit":50.0,
    "density":0.20254767,
    "dangerLevel":0.545361,
    "speedingCarsCount":181,
    "totalCarsCount":33189
  },
  {
    "id":34,
    "streetName":"claragraben",
    "longitude":7.5926872,
    "latitude":47.5645418,
    "area":"tertiary",
    "speedlimit":30.0,
    "density":0.73576635,
    "dangerLevel":79.8102,
    "speedingCarsCount":96220,
    "totalCarsCount":120561
  },
  {
    "id":35,
    "streetName":"theodorsgraben",
    "longitude":7.5978219,
    "latitude":47.5576271,
    "area":"residential",
    "speedlimit":30.0,
    "density":0.05315587,
    "dangerLevel":10.4133,
    "speedingCarsCount":907,
    "totalCarsCount":8710
  },
  {
    "id":36,
    "streetName":"1niederholzstras",
    "longitude":0.0,
    "latitude":0.0,
    "area":null,
    "speedlimit":0.0,
    "density":0.036989406,
    "dangerLevel":null,
    "speedingCarsCount":null,
    "totalCarsCount":6061
  },
  {
    "id":37,
    "streetName":"hebelstrasse",
    "longitude":7.5818737,
    "latitude":47.5608701,
    "area":"residential",
    "speedlimit":30.0,
    "density":0.12690277,
    "dangerLevel":7.78109,
    "speedingCarsCount":1618,
    "totalCarsCount":20794
  },
  {
    "id":38,
    "streetName":"unt.batteriewe",
    "longitude":0.0,
    "latitude":0.0,
    "area":null,
    "speedlimit":0.0,
    "density":0.2084247,
    "dangerLevel":null,
    "speedingCarsCount":null,
    "totalCarsCount":34152
  },
  {
    "id":40,
    "streetName":"bruderholzalle",
    "longitude":0.0,
    "latitude":0.0,
    "area":null,
    "speedlimit":0.0,
    "density":0.047053013,
    "dangerLevel":null,
    "speedingCarsCount":null,
    "totalCarsCount":7710
  },
  {
    "id":41,
    "streetName":"schoenaustrasse",
    "longitude":7.6048637,
    "latitude":47.5689048,
    "area":"tertiary",
    "speedlimit":50.0,
    "density":0.7023471,
    "dangerLevel":7.73602,
    "speedingCarsCount":8903,
    "totalCarsCount":115085
  },
  {
    "id":42,
    "streetName":"schellenb",
    "longitude":0.0,
    "latitude":0.0,
    "area":null,
    "speedlimit":0.0,
    "density":0.011125505,
    "dangerLevel":null,
    "speedingCarsCount":null,
    "totalCarsCount":1823
  },
  {
    "id":43,
    "streetName":"schorenma",
    "longitude":0.0,
    "latitude":0.0,
    "area":null,
    "speedlimit":0.0,
    "density":0.023910986,
    "dangerLevel":null,
    "speedingCarsCount":null,
    "totalCarsCount":3918
  },
  {
    "id":44,
    "streetName":"1pilatusstrasse",
    "longitude":0.0,
    "latitude":0.0,
    "area":null,
    "speedlimit":0.0,
    "density":0.018265847,
    "dangerLevel":null,
    "speedingCarsCount":null,
    "totalCarsCount":2993
  },
  {
    "id":45,
    "streetName":"spalenberg",
    "longitude":7.5855692,
    "latitude":47.5568663,
    "area":"pedestrian",
    "speedlimit":-1.0,
    "density":0.3146815,
    "dangerLevel":null,
    "speedingCarsCount":51563,
    "totalCarsCount":51563
  },
  {
    "id":46,
    "streetName":"lin",
    "longitude":0.0,
    "latitude":0.0,
    "area":null,
    "speedlimit":0.0,
    "density":0.08913831,
    "dangerLevel":null,
    "speedingCarsCount":null,
    "totalCarsCount":14606
  },
  {
    "id":47,
    "streetName":"mohrgartenring",
    "longitude":0.0,
    "latitude":0.0,
    "area":null,
    "speedlimit":0.0,
    "density":0.83497435,
    "dangerLevel":null,
    "speedingCarsCount":null,
    "totalCarsCount":136817
  },
  {
    "id":48,
    "streetName":"friedrichstr",
    "longitude":7.5748527,
    "latitude":47.5567499,
    "area":"residential",
    "speedlimit":-1.0,
    "density":0.02624838,
    "dangerLevel":null,
    "speedingCarsCount":4301,
    "totalCarsCount":4301
  },
  {
    "id":49,
    "streetName":"kleinhüningers",
    "longitude":0.0,
    "latitude":0.0,
    "area":null,
    "speedlimit":0.0,
    "density":0.11395862,
    "dangerLevel":null,
    "speedingCarsCount":null,
    "totalCarsCount":18673
  },
  {
    "id":50,
    "streetName":"malzgasse",
    "longitude":7.5969022,
    "latitude":47.5525234,
    "area":"residential",
    "speedlimit":30.0,
    "density":0.08655679,
    "dangerLevel":18.9382,
    "speedingCarsCount":2686,
    "totalCarsCount":14183
  },
  {
    "id":51,
    "streetName":"hoernlistrasse",
    "longitude":7.63141132799295,
    "latitude":47.56393,
    "area":"restaurant",
    "speedlimit":-1.0,
    "density":0.4464666,
    "dangerLevel":null,
    "speedingCarsCount":73157,
    "totalCarsCount":73157
  },
  {
    "id":52,
    "streetName":"magdenstrasse",
    "longitude":7.6165825,
    "latitude":47.5638869,
    "area":"residential",
    "speedlimit":-1.0,
    "density":0.041578755,
    "dangerLevel":null,
    "speedingCarsCount":6813,
    "totalCarsCount":6813
  },
  {
    "id":53,
    "streetName":"hochstrasse",
    "longitude":7.5923505,
    "latitude":47.5455184,
    "area":"tertiary",
    "speedlimit":50.0,
    "density":0.19934976,
    "dangerLevel":0.125517,
    "speedingCarsCount":41,
    "totalCarsCount":32665
  },
  {
    "id":54,
    "streetName":"pfeffingerstra",
    "longitude":0.0,
    "latitude":0.0,
    "area":null,
    "speedlimit":0.0,
    "density":0.0414689,
    "dangerLevel":null,
    "speedingCarsCount":null,
    "totalCarsCount":6795
  },
  {
    "id":55,
    "streetName":"freie-strasse",
    "longitude":7.5892131,
    "latitude":47.5570409,
    "area":"pedestrian",
    "speedlimit":-1.0,
    "density":0.38820872,
    "dangerLevel":null,
    "speedingCarsCount":63611,
    "totalCarsCount":63611
  },
  {
    "id":56,
    "streetName":"31",
    "longitude":0.0,
    "latitude":0.0,
    "area":null,
    "speedlimit":0.0,
    "density":0.011040065,
    "dangerLevel":null,
    "speedingCarsCount":null,
    "totalCarsCount":1809
  },
  {
    "id":57,
    "streetName":"missionsstrssse",
    "longitude":0.0,
    "latitude":0.0,
    "area":null,
    "speedlimit":0.0,
    "density":0.35046867,
    "dangerLevel":null,
    "speedingCarsCount":null,
    "totalCarsCount":57427
  },
  {
    "id":58,
    "streetName":"gstaltenrainweg",
    "longitude":7.6381349,
    "latitude":47.5735617,
    "area":"residential",
    "speedlimit":-1.0,
    "density":0.029244883,
    "dangerLevel":null,
    "speedingCarsCount":4792,
    "totalCarsCount":4792
  },
  {
    "id":59,
    "streetName":"oltingerstrass",
    "longitude":0.0,
    "latitude":0.0,
    "area":null,
    "speedlimit":0.0,
    "density":0.048743505,
    "dangerLevel":null,
    "speedingCarsCount":null,
    "totalCarsCount":7987
  },
  {
    "id":60,
    "streetName":"bachlettenstra",
    "longitude":0.0,
    "latitude":0.0,
    "area":null,
    "speedlimit":0.0,
    "density":0.055969287,
    "dangerLevel":null,
    "speedingCarsCount":null,
    "totalCarsCount":9171
  },
  {
    "id":61,
    "streetName":"gotthelfstrass",
    "longitude":0.0,
    "latitude":0.0,
    "area":null,
    "speedlimit":0.0,
    "density":0.13954179,
    "dangerLevel":null,
    "speedingCarsCount":null,
    "totalCarsCount":22865
  },
  {
    "id":62,
    "streetName":"schuetzenrainw",
    "longitude":0.0,
    "latitude":0.0,
    "area":null,
    "speedlimit":0.0,
    "density":0.0067863753,
    "dangerLevel":null,
    "speedingCarsCount":null,
    "totalCarsCount":1112
  },
  {
    "id":63,
    "streetName":"aeuss.baselstr",
    "longitude":0.0,
    "latitude":0.0,
    "area":null,
    "speedlimit":0.0,
    "density":1.9139774,
    "dangerLevel":null,
    "speedingCarsCount":null,
    "totalCarsCount":313620
  },
  {
    "id":64,
    "streetName":"1badenweilerstra",
    "longitude":0.0,
    "latitude":0.0,
    "area":null,
    "speedlimit":0.0,
    "density":0.021701753,
    "dangerLevel":null,
    "speedingCarsCount":null,
    "totalCarsCount":3556
  },
  {
    "id":65,
    "streetName":"hardstrasse",
    "longitude":7.6011657,
    "latitude":47.5523482,
    "area":"tertiary",
    "speedlimit":50.0,
    "density":0.8475645,
    "dangerLevel":2.62673,
    "speedingCarsCount":3648,
    "totalCarsCount":138880
  },
  {
    "id":66,
    "streetName":"güterstrasse",
    "longitude":7.6002635,
    "latitude":47.5411207,
    "area":"residential",
    "speedlimit":30.0,
    "density":0.25830334,
    "dangerLevel":59.4117,
    "speedingCarsCount":25146,
    "totalCarsCount":42325
  },
  {
    "id":67,
    "streetName":"muelhauserstrass",
    "longitude":0.0,
    "latitude":0.0,
    "area":null,
    "speedlimit":0.0,
    "density":0.1703612,
    "dangerLevel":null,
    "speedingCarsCount":null,
    "totalCarsCount":27915
  },
  {
    "id":68,
    "streetName":"st.johanns-rin",
    "longitude":0.0,
    "latitude":0.0,
    "area":null,
    "speedlimit":0.0,
    "density":0.24588403,
    "dangerLevel":null,
    "speedingCarsCount":null,
    "totalCarsCount":40290
  },
  {
    "id":69,
    "streetName":"maulbeerstrasse",
    "longitude":7.6091611,
    "latitude":47.5696555,
    "area":"residential",
    "speedlimit":-1.0,
    "density":0.51771134,
    "dangerLevel":null,
    "speedingCarsCount":84831,
    "totalCarsCount":84831
  },
  {
    "id":70,
    "streetName":"blaesiring",
    "longitude":7.5951185,
    "latitude":47.5687452,
    "area":"residential",
    "speedlimit":-1.0,
    "density":0.17741,
    "dangerLevel":null,
    "speedingCarsCount":29070,
    "totalCarsCount":29070
  },
  {
    "id":71,
    "streetName":"wanderstrasse",
    "longitude":7.5682058,
    "latitude":47.5526404,
    "area":"tertiary",
    "speedlimit":50.0,
    "density":0.29444444,
    "dangerLevel":16.4238,
    "speedingCarsCount":7924,
    "totalCarsCount":48247
  },
  {
    "id":72,
    "streetName":"burgstrasse",
    "longitude":7.7367123,
    "latitude":47.4807828,
    "area":"tertiary",
    "speedlimit":50.0,
    "density":0.1094364,
    "dangerLevel":0.044613,
    "speedingCarsCount":8,
    "totalCarsCount":17932
  },
  {
    "id":73,
    "streetName":"5",
    "longitude":7.6171216,
    "latitude":47.5444178,
    "area":"motorway",
    "speedlimit":80.0,
    "density":0.07128745,
    "dangerLevel":null,
    "speedingCarsCount":null,
    "totalCarsCount":11681
  },
  {
    "id":74,
    "streetName":"gotthardstrass",
    "longitude":0.0,
    "latitude":0.0,
    "area":null,
    "speedlimit":0.0,
    "density":0.12463251,
    "dangerLevel":null,
    "speedingCarsCount":null,
    "totalCarsCount":20422
  },
  {
    "id":76,
    "streetName":"hirzbrunnenstr",
    "longitude":7.6190684,
    "latitude":47.5633132,
    "area":"residential",
    "speedlimit":30.0,
    "density":0.04920732,
    "dangerLevel":38.7449,
    "speedingCarsCount":3124,
    "totalCarsCount":8063
  },
  {
    "id":77,
    "streetName":"leonhardsstr",
    "longitude":7.5843104,
    "latitude":47.5538886,
    "area":"unclassified",
    "speedlimit":-1.0,
    "density":0.12433957,
    "dangerLevel":null,
    "speedingCarsCount":20374,
    "totalCarsCount":20374
  },
  {
    "id":78,
    "streetName":"schliengerweg",
    "longitude":7.5956538,
    "latitude":47.5722891,
    "area":"residential",
    "speedlimit":-1.0,
    "density":0.06629532,
    "dangerLevel":null,
    "speedingCarsCount":10863,
    "totalCarsCount":10863
  },
  {
    "id":79,
    "streetName":"predigerhofstr",
    "longitude":7.5900149,
    "latitude":47.526054,
    "area":"residential",
    "speedlimit":-1.0,
    "density":0.12120271,
    "dangerLevel":null,
    "speedingCarsCount":19860,
    "totalCarsCount":19860
  },
  {
    "id":80,
    "streetName":"hammerstras",
    "longitude":0.0,
    "latitude":0.0,
    "area":null,
    "speedlimit":0.0,
    "density":0.2285214,
    "dangerLevel":null,
    "speedingCarsCount":null,
    "totalCarsCount":37445
  },
  {
    "id":81,
    "streetName":"kleinriehenstr",
    "longitude":7.6135202,
    "latitude":47.5667003,
    "area":"residential",
    "speedlimit":-1.0,
    "density":0.024509067,
    "dangerLevel":null,
    "speedingCarsCount":4016,
    "totalCarsCount":4016
  },
  {
    "id":83,
    "streetName":"birmansgasse",
    "longitude":0.0,
    "latitude":0.0,
    "area":null,
    "speedlimit":0.0,
    "density":0.30838338,
    "dangerLevel":null,
    "speedingCarsCount":null,
    "totalCarsCount":50531
  },
  {
    "id":85,
    "streetName":"voltastrasse",
    "longitude":7.5769712,
    "latitude":47.5707963,
    "area":"primary",
    "speedlimit":50.0,
    "density":1.0827807,
    "dangerLevel":4.42842,
    "speedingCarsCount":7857,
    "totalCarsCount":177422
  },
  {
    "id":86,
    "streetName":"st.alban-anlag",
    "longitude":0.0,
    "latitude":0.0,
    "area":null,
    "speedlimit":0.0,
    "density":0.5027105,
    "dangerLevel":null,
    "speedingCarsCount":null,
    "totalCarsCount":82373
  },
  {
    "id":87,
    "streetName":"ruedinstrasse",
    "longitude":7.6404841,
    "latitude":47.5716072,
    "area":"residential",
    "speedlimit":-1.0,
    "density":0.017435858,
    "dangerLevel":null,
    "speedingCarsCount":2857,
    "totalCarsCount":2857
  },
  {
    "id":88,
    "streetName":"thiersteinerr",
    "longitude":0.0,
    "latitude":0.0,
    "area":null,
    "speedlimit":0.0,
    "density":0.015501251,
    "dangerLevel":null,
    "speedingCarsCount":null,
    "totalCarsCount":2540
  },
  {
    "id":89,
    "streetName":"kohlenberg",
    "longitude":7.5877973,
    "latitude":47.5543817,
    "area":"unclassified",
    "speedlimit":30.0,
    "density":0.12015301,
    "dangerLevel":21.6883,
    "speedingCarsCount":4270,
    "totalCarsCount":19688
  },
  {
    "id":90,
    "streetName":"inzlingerstr",
    "longitude":7.6521278,
    "latitude":47.588752,
    "area":"secondary",
    "speedlimit":50.0,
    "density":0.14708492,
    "dangerLevel":1.36924,
    "speedingCarsCount":330,
    "totalCarsCount":24101
  },
  {
    "id":91,
    "streetName":"1hegenheimerst",
    "longitude":0.0,
    "latitude":0.0,
    "area":null,
    "speedlimit":0.0,
    "density":0.18644223,
    "dangerLevel":null,
    "speedingCarsCount":null,
    "totalCarsCount":30550
  },
  {
    "id":92,
    "streetName":"rud.wackernage",
    "longitude":0.0,
    "latitude":0.0,
    "area":null,
    "speedlimit":0.0,
    "density":0.97025025,
    "dangerLevel":null,
    "speedingCarsCount":null,
    "totalCarsCount":158983
  },
  {
    "id":93,
    "streetName":"sevogelstrasse",
    "longitude":7.5995554,
    "latitude":47.5482258,
    "area":"residential",
    "speedlimit":50.0,
    "density":0.310794,
    "dangerLevel":6.0637,
    "speedingCarsCount":3088,
    "totalCarsCount":50926
  },
  {
    "id":94,
    "streetName":"hafenstrasse",
    "longitude":7.5901006,
    "latitude":47.5831883,
    "area":"unclassified",
    "speedlimit":-1.0,
    "density":0.18019901,
    "dangerLevel":null,
    "speedingCarsCount":29527,
    "totalCarsCount":29527
  },
  {
    "id":95,
    "streetName":"pfaffenlohweg",
    "longitude":7.6415496,
    "latitude":47.5772792,
    "area":"residential",
    "speedlimit":-1.0,
    "density":0.034554366,
    "dangerLevel":null,
    "speedingCarsCount":5662,
    "totalCarsCount":5662
  },
  {
    "id":96,
    "streetName":"itelpfad",
    "longitude":7.6059996,
    "latitude":47.5629277,
    "area":"residential",
    "speedlimit":30.0,
    "density":0.012614601,
    "dangerLevel":8.22448,
    "speedingCarsCount":170,
    "totalCarsCount":2067
  },
  {
    "id":97,
    "streetName":"klosterberg",
    "longitude":7.5903847,
    "latitude":47.5521204,
    "area":"unclassified",
    "speedlimit":30.0,
    "density":0.27860755,
    "dangerLevel":34.5396,
    "speedingCarsCount":15768,
    "totalCarsCount":45652
  },
  {
    "id":98,
    "streetName":"neuhausstrasse",
    "longitude":7.5952787,
    "latitude":47.5824528,
    "area":"residential",
    "speedlimit":30.0,
    "density":0.21038982,
    "dangerLevel":71.2566,
    "speedingCarsCount":24565,
    "totalCarsCount":34474
  },
  {
    "id":100,
    "streetName":"keltenweg",
    "longitude":7.6308924,
    "latitude":47.535754,
    "area":"residential",
    "speedlimit":-1.0,
    "density":0.06642958,
    "dangerLevel":null,
    "speedingCarsCount":10885,
    "totalCarsCount":10885
  },
  {
    "id":101,
    "streetName":"reihnacker",
    "longitude":0.0,
    "latitude":0.0,
    "area":null,
    "speedlimit":0.0,
    "density":0.009947654,
    "dangerLevel":null,
    "speedingCarsCount":null,
    "totalCarsCount":1630
  },
  {
    "id":103,
    "streetName":"flughafenstras",
    "longitude":0.0,
    "latitude":0.0,
    "area":null,
    "speedlimit":0.0,
    "density":1.7914199,
    "dangerLevel":null,
    "speedingCarsCount":null,
    "totalCarsCount":293538
  },
  {
    "id":104,
    "streetName":"wittlingerstra",
    "longitude":0.0,
    "latitude":0.0,
    "area":null,
    "speedlimit":0.0,
    "density":0.0694505,
    "dangerLevel":null,
    "speedingCarsCount":null,
    "totalCarsCount":11380
  },
  {
    "id":105,
    "streetName":"schmiedgasse",
    "longitude":7.6540189,
    "latitude":47.5840528,
    "area":"residential",
    "speedlimit":-1.0,
    "density":0.12756798,
    "dangerLevel":null,
    "speedingCarsCount":20903,
    "totalCarsCount":20903
  },
  {
    "id":106,
    "streetName":"seltisbergerst",
    "longitude":0.0,
    "latitude":0.0,
    "area":null,
    "speedlimit":0.0,
    "density":0.26926407,
    "dangerLevel":null,
    "speedingCarsCount":null,
    "totalCarsCount":44121
  },
  {
    "id":107,
    "streetName":"baselstr",
    "longitude":7.6454442,
    "latitude":47.521986,
    "area":"tertiary",
    "speedlimit":-1.0,
    "density":0.3105133,
    "dangerLevel":null,
    "speedingCarsCount":50880,
    "totalCarsCount":50880
  },
  {
    "id":108,
    "streetName":"chrischonaweg",
    "longitude":7.6611931,
    "latitude":47.5828545,
    "area":"residential",
    "speedlimit":-1.0,
    "density":0.074729465,
    "dangerLevel":null,
    "speedingCarsCount":12245,
    "totalCarsCount":12245
  },
  {
    "id":109,
    "streetName":"fuerstensteine",
    "longitude":0.0,
    "latitude":0.0,
    "area":null,
    "speedlimit":0.0,
    "density":0.009288546,
    "dangerLevel":null,
    "speedingCarsCount":null,
    "totalCarsCount":1522
  },
  {
    "id":112,
    "streetName":"ruetimeyerstra",
    "longitude":0.0,
    "latitude":0.0,
    "area":null,
    "speedlimit":0.0,
    "density":1.5232666,
    "dangerLevel":null,
    "speedingCarsCount":null,
    "totalCarsCount":249599
  },
  {
    "id":114,
    "streetName":"blauenstrasse",
    "longitude":7.5730227,
    "latitude":47.5545637,
    "area":"residential",
    "speedlimit":30.0,
    "density":0.5330722,
    "dangerLevel":60.1353,
    "speedingCarsCount":52527,
    "totalCarsCount":87348
  },
  {
    "id":115,
    "streetName":"riehenring",
    "longitude":7.5976822,
    "latitude":47.5668569,
    "area":"secondary",
    "speedlimit":50.0,
    "density":0.71900177,
    "dangerLevel":20.6453,
    "speedingCarsCount":24323,
    "totalCarsCount":117814
  },
  {
    "id":116,
    "streetName":"fasanenstrasse",
    "longitude":7.6098835,
    "latitude":47.5729171,
    "area":"primary",
    "speedlimit":50.0,
    "density":1.0157531,
    "dangerLevel":29.4811,
    "speedingCarsCount":49068,
    "totalCarsCount":166439
  },
  {
    "id":118,
    "streetName":"baselst",
    "longitude":0.0,
    "latitude":0.0,
    "area":null,
    "speedlimit":0.0,
    "density":0.6777892,
    "dangerLevel":null,
    "speedingCarsCount":null,
    "totalCarsCount":111061
  },
  {
    "id":119,
    "streetName":"steinenring",
    "longitude":7.5788356,
    "latitude":47.5517283,
    "area":"primary",
    "speedlimit":-1.0,
    "density":0.6157659,
    "dangerLevel":null,
    "speedingCarsCount":100898,
    "totalCarsCount":100898
  },
  {
    "id":120,
    "streetName":"helvetierstr,",
    "longitude":7.6301883,
    "latitude":47.5704035,
    "area":"residential",
    "speedlimit":-1.0,
    "density":null,
    "dangerLevel":null,
    "speedingCarsCount":null,
    "totalCarsCount":null
  },
  {
    "id":121,
    "streetName":"steinbuehlalle",
    "longitude":0.0,
    "latitude":0.0,
    "area":null,
    "speedlimit":0.0,
    "density":0.087234214,
    "dangerLevel":null,
    "speedingCarsCount":null,
    "totalCarsCount":14294
  },
  {
    "id":123,
    "streetName":"brombacherstr",
    "longitude":7.5951538,
    "latitude":47.570678,
    "area":"residential",
    "speedlimit":50.0,
    "density":0.15232727,
    "dangerLevel":0.73718,
    "speedingCarsCount":184,
    "totalCarsCount":24960
  },
  {
    "id":124,
    "streetName":"stjakobs-stras",
    "longitude":0.0,
    "latitude":0.0,
    "area":null,
    "speedlimit":0.0,
    "density":0.3806656,
    "dangerLevel":null,
    "speedingCarsCount":null,
    "totalCarsCount":62375
  },
  {
    "id":126,
    "streetName":"fischerweg",
    "longitude":7.6023317,
    "latitude":47.5582781,
    "area":"residential",
    "speedlimit":30.0,
    "density":0.04524657,
    "dangerLevel":36.7548,
    "speedingCarsCount":2725,
    "totalCarsCount":7414
  },
  {
    "id":127,
    "streetName":"oetlingerstr",
    "longitude":7.5887725,
    "latitude":47.567474,
    "area":"residential",
    "speedlimit":30.0,
    "density":0.036855143,
    "dangerLevel":1.88773,
    "speedingCarsCount":114,
    "totalCarsCount":6039
  },
  {
    "id":129,
    "streetName":"gundeldingerst",
    "longitude":0.0,
    "latitude":0.0,
    "area":null,
    "speedlimit":0.0,
    "density":1.0381994,
    "dangerLevel":null,
    "speedingCarsCount":null,
    "totalCarsCount":170117
  },
  {
    "id":130,
    "streetName":"byfangweg",
    "longitude":7.583302,
    "latitude":47.5529396,
    "area":"residential",
    "speedlimit":-1.0,
    "density":0.03349247,
    "dangerLevel":null,
    "speedingCarsCount":5488,
    "totalCarsCount":5488
  },
  {
    "id":133,
    "streetName":"kannenfeldstra",
    "longitude":0.0,
    "latitude":0.0,
    "area":null,
    "speedlimit":0.0,
    "density":0.5724906,
    "dangerLevel":null,
    "speedingCarsCount":null,
    "totalCarsCount":93807
  },
  {
    "id":135,
    "streetName":"bettingerstra",
    "longitude":0.0,
    "latitude":0.0,
    "area":null,
    "speedlimit":0.0,
    "density":0.11375112,
    "dangerLevel":null,
    "speedingCarsCount":null,
    "totalCarsCount":18639
  },
  {
    "id":136,
    "streetName":"luzernerring",
    "longitude":7.5674547,
    "latitude":47.5684588,
    "area":"primary",
    "speedlimit":50.0,
    "density":2.2812107,
    "dangerLevel":23.1379,
    "speedingCarsCount":86488,
    "totalCarsCount":373794
  },
  {
    "id":137,
    "streetName":"str",
    "longitude":-70.2961584,
    "latitude":-18.4754541,
    "area":"residential",
    "speedlimit":-1.0,
    "density":2.5449638,
    "dangerLevel":null,
    "speedingCarsCount":417012,
    "totalCarsCount":417012
  },
  {
    "id":139,
    "streetName":"birsigstrasse",
    "longitude":7.5859711,
    "latitude":47.5511662,
    "area":"secondary",
    "speedlimit":50.0,
    "density":0.18571599,
    "dangerLevel":6.73327,
    "speedingCarsCount":2049,
    "totalCarsCount":30431
  },
  {
    "id":140,
    "streetName":"1hackbergstrasse",
    "longitude":0.0,
    "latitude":0.0,
    "area":null,
    "speedlimit":0.0,
    "density":0.01404267,
    "dangerLevel":null,
    "speedingCarsCount":null,
    "totalCarsCount":2301
  },
  {
    "id":141,
    "streetName":"neubadstrasse",
    "longitude":7.5713151,
    "latitude":47.5496755,
    "area":"tertiary",
    "speedlimit":-1.0,
    "density":1.0121096,
    "dangerLevel":null,
    "speedingCarsCount":165842,
    "totalCarsCount":165842
  },
  {
    "id":143,
    "streetName":"steinbuelallee",
    "longitude":0.0,
    "latitude":0.0,
    "area":null,
    "speedlimit":0.0,
    "density":0.061937876,
    "dangerLevel":null,
    "speedingCarsCount":null,
    "totalCarsCount":10149
  },
  {
    "id":144,
    "streetName":"petersgra",
    "longitude":0.0,
    "latitude":0.0,
    "area":null,
    "speedlimit":0.0,
    "density":0.42248237,
    "dangerLevel":null,
    "speedingCarsCount":null,
    "totalCarsCount":69227
  },
  {
    "id":145,
    "streetName":"sdr_4281b.sdr",
    "longitude":0.0,
    "latitude":0.0,
    "area":null,
    "speedlimit":0.0,
    "density":0.043372992,
    "dangerLevel":null,
    "speedingCarsCount":null,
    "totalCarsCount":7107
  },
  {
    "id":147,
    "streetName":"offenbugerstra",
    "longitude":0.0,
    "latitude":0.0,
    "area":null,
    "speedlimit":0.0,
    "density":0.20835759,
    "dangerLevel":null,
    "speedingCarsCount":null,
    "totalCarsCount":34141
  },
  {
    "id":148,
    "streetName":"leuengasse",
    "longitude":7.5880012,
    "latitude":47.5662191,
    "area":"residential",
    "speedlimit":30.0,
    "density":0.124589786,
    "dangerLevel":7.29856,
    "speedingCarsCount":1490,
    "totalCarsCount":20415
  },
  {
    "id":150,
    "streetName":"binningerstras",
    "longitude":0.0,
    "latitude":0.0,
    "area":null,
    "speedlimit":0.0,
    "density":0.80217755,
    "dangerLevel":null,
    "speedingCarsCount":null,
    "totalCarsCount":131443
  },
  {
    "id":153,
    "streetName":"meierweg",
    "longitude":7.6480044,
    "latitude":47.5799811,
    "area":"residential",
    "speedlimit":-1.0,
    "density":0.036885656,
    "dangerLevel":null,
    "speedingCarsCount":6044,
    "totalCarsCount":6044
  },
  {
    "id":154,
    "streetName":"gempestrasse",
    "longitude":0.0,
    "latitude":0.0,
    "area":null,
    "speedlimit":0.0,
    "density":0.022513432,
    "dangerLevel":null,
    "speedingCarsCount":null,
    "totalCarsCount":3689
  },
  {
    "id":155,
    "streetName":"allschwilerstr",
    "longitude":7.5659365,
    "latitude":47.5571761,
    "area":"secondary",
    "speedlimit":50.0,
    "density":0.4475529,
    "dangerLevel":3.874,
    "speedingCarsCount":2841,
    "totalCarsCount":73335
  },
  {
    "id":157,
    "streetName":"st.johanns-rhe",
    "longitude":0.0,
    "latitude":0.0,
    "area":null,
    "speedlimit":0.0,
    "density":0.041865587,
    "dangerLevel":null,
    "speedingCarsCount":null,
    "totalCarsCount":6860
  },
  {
    "id":159,
    "streetName":"39",
    "longitude":0.0,
    "latitude":0.0,
    "area":null,
    "speedlimit":0.0,
    "density":0.22002015,
    "dangerLevel":null,
    "speedingCarsCount":null,
    "totalCarsCount":36052
  },
  {
    "id":160,
    "streetName":"gartenstrasse",
    "longitude":7.5952261,
    "latitude":47.5494223,
    "area":"residential",
    "speedlimit":30.0,
    "density":0.35842067,
    "dangerLevel":63.1449,
    "speedingCarsCount":37085,
    "totalCarsCount":58730
  },
  {
    "id":161,
    "streetName":"elsässerstr",
    "longitude":7.5735106,
    "latitude":47.5758128,
    "area":"primary",
    "speedlimit":50.0,
    "density":0.58443993,
    "dangerLevel":5.2775,
    "speedingCarsCount":5054,
    "totalCarsCount":95765
  },
  {
    "id":162,
    "streetName":"baldeggerstras",
    "longitude":0.0,
    "latitude":0.0,
    "area":null,
    "speedlimit":0.0,
    "density":0.27731374,
    "dangerLevel":null,
    "speedingCarsCount":null,
    "totalCarsCount":45440
  },
  {
    "id":163,
    "streetName":"angensteinerst",
    "longitude":0.0,
    "latitude":0.0,
    "area":null,
    "speedlimit":0.0,
    "density":0.0039546504,
    "dangerLevel":null,
    "speedingCarsCount":null,
    "totalCarsCount":648
  },
  {
    "id":164,
    "streetName":"28",
    "longitude":0.0,
    "latitude":0.0,
    "area":null,
    "speedlimit":0.0,
    "density":0.033937976,
    "dangerLevel":null,
    "speedingCarsCount":null,
    "totalCarsCount":5561
  },
  {
    "id":166,
    "streetName":"1ruechliweg",
    "longitude":0.0,
    "latitude":0.0,
    "area":null,
    "speedlimit":0.0,
    "density":0.044660695,
    "dangerLevel":null,
    "speedingCarsCount":null,
    "totalCarsCount":7318
  },
  {
    "id":167,
    "streetName":"leimgrubenweg",
    "longitude":7.6058958,
    "latitude":47.5367148,
    "area":"primary",
    "speedlimit":50.0,
    "density":0.005974695,
    "dangerLevel":1.73647,
    "speedingCarsCount":17,
    "totalCarsCount":979
  },
  {
    "id":169,
    "streetName":"badenstrasse",
    "longitude":7.5968704,
    "latitude":47.5803027,
    "area":"residential",
    "speedlimit":-1.0,
    "density":0.26191014,
    "dangerLevel":null,
    "speedingCarsCount":42916,
    "totalCarsCount":42916
  },
  {
    "id":172,
    "streetName":"stjakobs-str",
    "longitude":0.0,
    "latitude":0.0,
    "area":null,
    "speedlimit":0.0,
    "density":0.07848272,
    "dangerLevel":null,
    "speedingCarsCount":null,
    "totalCarsCount":12860
  },
  {
    "id":175,
    "streetName":"suedquai",
    "longitude":7.5938459,
    "latitude":47.5851972,
    "area":"residential",
    "speedlimit":-1.0,
    "density":0.07037202,
    "dangerLevel":null,
    "speedingCarsCount":11531,
    "totalCarsCount":11531
  },
  {
    "id":179,
    "streetName":"spitalstras",
    "longitude":0.0,
    "latitude":0.0,
    "area":null,
    "speedlimit":0.0,
    "density":1.0187619,
    "dangerLevel":null,
    "speedingCarsCount":null,
    "totalCarsCount":166932
  },
  {
    "id":182,
    "streetName":"leimenstrasse",
    "longitude":7.5809504,
    "latitude":47.5524663,
    "area":"unclassified",
    "speedlimit":30.0,
    "density":0.44474554,
    "dangerLevel":18.4892,
    "speedingCarsCount":13474,
    "totalCarsCount":72875
  },
  {
    "id":183,
    "streetName":"schneidergasse",
    "longitude":7.586586,
    "latitude":47.558134,
    "area":"pedestrian",
    "speedlimit":-1.0,
    "density":0.46967575,
    "dangerLevel":null,
    "speedingCarsCount":76960,
    "totalCarsCount":76960
  },
  {
    "id":184,
    "streetName":"klosteberg",
    "longitude":0.0,
    "latitude":0.0,
    "area":null,
    "speedlimit":0.0,
    "density":0.2081806,
    "dangerLevel":null,
    "speedingCarsCount":null,
    "totalCarsCount":34112
  },
  {
    "id":185,
    "streetName":"1burgfelderstras",
    "longitude":0.0,
    "latitude":0.0,
    "area":null,
    "speedlimit":0.0,
    "density":0.22174725,
    "dangerLevel":null,
    "speedingCarsCount":null,
    "totalCarsCount":36335
  },
  {
    "id":188,
    "streetName":"brueglingerstr",
    "longitude":7.615348,
    "latitude":47.5398787,
    "area":"primary",
    "speedlimit":60.0,
    "density":0.5549326,
    "dangerLevel":2.65479,
    "speedingCarsCount":2414,
    "totalCarsCount":90930
  },
  {
    "id":189,
    "streetName":"1mattenstrasse",
    "longitude":0.0,
    "latitude":0.0,
    "area":null,
    "speedlimit":0.0,
    "density":0.20555027,
    "dangerLevel":null,
    "speedingCarsCount":null,
    "totalCarsCount":33681
  },
  {
    "id":190,
    "streetName":"rauracherstrasse",
    "longitude":7.6301105,
    "latitude":47.5725981,
    "area":"secondary",
    "speedlimit":-1.0,
    "density":0.7030916,
    "dangerLevel":null,
    "speedingCarsCount":115207,
    "totalCarsCount":115207
  },
  {
    "id":192,
    "streetName":"90",
    "longitude":-70.2961584,
    "latitude":-18.4754541,
    "area":"residential",
    "speedlimit":-1.0,
    "density":0.12008589,
    "dangerLevel":null,
    "speedingCarsCount":19677,
    "totalCarsCount":19677
  },
  {
    "id":194,
    "streetName":"leonhardsgrabe",
    "longitude":0.0,
    "latitude":0.0,
    "area":null,
    "speedlimit":0.0,
    "density":0.25154138,
    "dangerLevel":null,
    "speedingCarsCount":null,
    "totalCarsCount":41217
  },
  {
    "id":196,
    "streetName":"alemannengasse",
    "longitude":7.6023242,
    "latitude":47.5577345,
    "area":"residential",
    "speedlimit":30.0,
    "density":0.054553423,
    "dangerLevel":3.62457,
    "speedingCarsCount":324,
    "totalCarsCount":8939
  },
  {
    "id":197,
    "streetName":"hammerstrasse",
    "longitude":7.5978645,
    "latitude":47.5604296,
    "area":"secondary",
    "speedlimit":50.0,
    "density":0.3772358,
    "dangerLevel":0.0469157,
    "speedingCarsCount":29,
    "totalCarsCount":61813
  },
  {
    "id":199,
    "streetName":"margarethenstr",
    "longitude":7.5845276,
    "latitude":47.5469713,
    "area":"primary",
    "speedlimit":50.0,
    "density":1.3130841,
    "dangerLevel":1.64948,
    "speedingCarsCount":3549,
    "totalCarsCount":215159
  },
  {
    "id":200,
    "streetName":"hauptstrasse",
    "longitude":7.5754994,
    "latitude":47.5439857,
    "area":"secondary",
    "speedlimit":50.0,
    "density":0.044947527,
    "dangerLevel":3.24508,
    "speedingCarsCount":239,
    "totalCarsCount":7365
  },
  {
    "id":202,
    "streetName":"m.oppenheim-st",
    "longitude":7.5899147,
    "latitude":47.5457915,
    "area":"tertiary",
    "speedlimit":50.0,
    "density":0.5663816,
    "dangerLevel":13.1145,
    "speedingCarsCount":12171,
    "totalCarsCount":92806
  },
  {
    "id":203,
    "streetName":"elisabethenstras",
    "longitude":0.0,
    "latitude":0.0,
    "area":null,
    "speedlimit":0.0,
    "density":0.34977293,
    "dangerLevel":null,
    "speedingCarsCount":null,
    "totalCarsCount":57313
  },
  {
    "id":206,
    "streetName":"vorsta",
    "longitude":0.0,
    "latitude":0.0,
    "area":null,
    "speedlimit":0.0,
    "density":0.09226297,
    "dangerLevel":null,
    "speedingCarsCount":null,
    "totalCarsCount":15118
  },
  {
    "id":207,
    "streetName":"schaeublistras",
    "longitude":0.0,
    "latitude":0.0,
    "area":null,
    "speedlimit":0.0,
    "density":0.020999923,
    "dangerLevel":null,
    "speedingCarsCount":null,
    "totalCarsCount":3441
  },
  {
    "id":208,
    "streetName":"friedrichsgass",
    "longitude":0.0,
    "latitude":0.0,
    "area":null,
    "speedlimit":0.0,
    "density":0.04644273,
    "dangerLevel":null,
    "speedingCarsCount":null,
    "totalCarsCount":7610
  },
  {
    "id":211,
    "streetName":"inzlingerstrasse",
    "longitude":7.6521278,
    "latitude":47.588752,
    "area":"secondary",
    "speedlimit":50.0,
    "density":0.6294668,
    "dangerLevel":2.55858,
    "speedingCarsCount":2639,
    "totalCarsCount":103143
  },
  {
    "id":212,
    "streetName":"grosspeterstr",
    "longitude":7.6029468,
    "latitude":47.5451292,
    "area":"primary",
    "speedlimit":50.0,
    "density":1.9138128,
    "dangerLevel":36.0818,
    "speedingCarsCount":113150,
    "totalCarsCount":313593
  },
  {
    "id":213,
    "streetName":"lerchenstrasse",
    "longitude":7.589238,
    "latitude":47.5374797,
    "area":"residential",
    "speedlimit":-1.0,
    "density":0.02734079,
    "dangerLevel":null,
    "speedingCarsCount":4480,
    "totalCarsCount":4480
  },
  {
    "id":215,
    "streetName":"inzlingerstr,",
    "longitude":7.6521278,
    "latitude":47.588752,
    "area":"secondary",
    "speedlimit":50.0,
    "density":null,
    "dangerLevel":null,
    "speedingCarsCount":null,
    "totalCarsCount":null
  },
  {
    "id":216,
    "streetName":"steinentorstra",
    "longitude":0.0,
    "latitude":0.0,
    "area":null,
    "speedlimit":0.0,
    "density":1.4432032,
    "dangerLevel":null,
    "speedingCarsCount":null,
    "totalCarsCount":236480
  },
  {
    "id":217,
    "streetName":"marktplatz",
    "longitude":7.5880906,
    "latitude":47.557761,
    "area":"residential",
    "speedlimit":20.0,
    "density":0.11633262,
    "dangerLevel":32.389,
    "speedingCarsCount":6174,
    "totalCarsCount":19062
  },
  {
    "id":218,
    "streetName":"breisacherstra",
    "longitude":0.0,
    "latitude":0.0,
    "area":null,
    "speedlimit":0.0,
    "density":0.25507495,
    "dangerLevel":null,
    "speedingCarsCount":null,
    "totalCarsCount":41796
  },
  {
    "id":219,
    "streetName":"wolf",
    "longitude":7.57829593485011,
    "latitude":47.546806,
    "area":"beach",
    "speedlimit":-1.0,
    "density":0.8189665,
    "dangerLevel":null,
    "speedingCarsCount":134194,
    "totalCarsCount":134194
  },
  {
    "id":220,
    "streetName":"drahtzugstrasse",
    "longitude":7.5962106,
    "latitude":47.5635322,
    "area":"residential",
    "speedlimit":30.0,
    "density":0.21934882,
    "dangerLevel":28.546,
    "speedingCarsCount":10260,
    "totalCarsCount":35942
  },
  {
    "id":221,
    "streetName":"reiterstrasse",
    "longitude":7.5653877,
    "latitude":47.5483571,
    "area":"tertiary",
    "speedlimit":50.0,
    "density":0.37532562,
    "dangerLevel":0.907317,
    "speedingCarsCount":558,
    "totalCarsCount":61500
  },
  {
    "id":223,
    "streetName":"zürcherstrasse",
    "longitude":7.6158729,
    "latitude":47.5555693,
    "area":"primary",
    "speedlimit":50.0,
    "density":0.55119765,
    "dangerLevel":35.8655,
    "speedingCarsCount":32393,
    "totalCarsCount":90318
  },
  {
    "id":225,
    "streetName":"spaltentorweg",
    "longitude":0.0,
    "latitude":0.0,
    "area":null,
    "speedlimit":0.0,
    "density":0.025320746,
    "dangerLevel":null,
    "speedingCarsCount":null,
    "totalCarsCount":4149
  },
  {
    "id":227,
    "streetName":"muellheimerstr",
    "longitude":7.5923182,
    "latitude":47.570841,
    "area":"residential",
    "speedlimit":30.0,
    "density":0.1047311,
    "dangerLevel":13.0004,
    "speedingCarsCount":2231,
    "totalCarsCount":17161
  },
  {
    "id":228,
    "streetName":"1baeumlihofstr",
    "longitude":0.0,
    "latitude":0.0,
    "area":null,
    "speedlimit":0.0,
    "density":0.34234577,
    "dangerLevel":null,
    "speedingCarsCount":null,
    "totalCarsCount":56096
  },
  {
    "id":229,
    "streetName":"1reiterstrasse",
    "longitude":0.0,
    "latitude":0.0,
    "area":null,
    "speedlimit":0.0,
    "density":0.15191227,
    "dangerLevel":null,
    "speedingCarsCount":null,
    "totalCarsCount":24892
  },
  {
    "id":230,
    "streetName":"kjaspersalle",
    "longitude":0.0,
    "latitude":0.0,
    "area":null,
    "speedlimit":0.0,
    "density":0.024210026,
    "dangerLevel":null,
    "speedingCarsCount":null,
    "totalCarsCount":3967
  },
  {
    "id":232,
    "streetName":"schaeublinstrass",
    "longitude":0.0,
    "latitude":0.0,
    "area":null,
    "speedlimit":0.0,
    "density":0.035921406,
    "dangerLevel":null,
    "speedingCarsCount":null,
    "totalCarsCount":5886
  },
  {
    "id":233,
    "streetName":"grenzacherstrass",
    "longitude":0.0,
    "latitude":0.0,
    "area":null,
    "speedlimit":0.0,
    "density":1.175471,
    "dangerLevel":null,
    "speedingCarsCount":null,
    "totalCarsCount":192610
  },
  {
    "id":234,
    "streetName":"dafldsbodenstr",
    "longitude":0.0,
    "latitude":0.0,
    "area":null,
    "speedlimit":0.0,
    "density":0.051379938,
    "dangerLevel":null,
    "speedingCarsCount":null,
    "totalCarsCount":8419
  },
  {
    "id":235,
    "streetName":"passwangstr",
    "longitude":7.5941798,
    "latitude":47.5361371,
    "area":"residential",
    "speedlimit":-1.0,
    "density":0.014762808,
    "dangerLevel":null,
    "speedingCarsCount":2419,
    "totalCarsCount":2419
  },
  {
    "id":236,
    "streetName":"petrsgasse",
    "longitude":0.0,
    "latitude":0.0,
    "area":null,
    "speedlimit":0.0,
    "density":0.107275985,
    "dangerLevel":null,
    "speedingCarsCount":null,
    "totalCarsCount":17578
  },
  {
    "id":238,
    "streetName":"schuetzengasse",
    "longitude":7.6547664,
    "latitude":47.585208,
    "area":"residential",
    "speedlimit":30.0,
    "density":0.038344238,
    "dangerLevel":44.4692,
    "speedingCarsCount":2794,
    "totalCarsCount":6283
  },
  {
    "id":239,
    "streetName":"muelhauserstra",
    "longitude":0.0,
    "latitude":0.0,
    "area":null,
    "speedlimit":0.0,
    "density":0.2577907,
    "dangerLevel":null,
    "speedingCarsCount":null,
    "totalCarsCount":42241
  },
  {
    "id":241,
    "streetName":"tangentenweg",
    "longitude":7.5987205,
    "latitude":47.5708044,
    "area":"living_street",
    "speedlimit":20.0,
    "density":0.11063255,
    "dangerLevel":72.1812,
    "speedingCarsCount":13085,
    "totalCarsCount":18128
  },
  {
    "id":244,
    "streetName":"peters",
    "longitude":7.584388,
    "latitude":47.5586143,
    "area":"residential",
    "speedlimit":30.0,
    "density":0.3299814,
    "dangerLevel":62.2156,
    "speedingCarsCount":33640,
    "totalCarsCount":54070
  },
  {
    "id":245,
    "streetName":"schuetzengraben",
    "longitude":7.5828792,
    "latitude":47.5559488,
    "area":"secondary",
    "speedlimit":50.0,
    "density":0.5556223,
    "dangerLevel":13.7528,
    "speedingCarsCount":12521,
    "totalCarsCount":91043
  },
  {
    "id":246,
    "streetName":"hegenheimerstras",
    "longitude":0.0,
    "latitude":0.0,
    "area":null,
    "speedlimit":0.0,
    "density":0.7567907,
    "dangerLevel":null,
    "speedingCarsCount":null,
    "totalCarsCount":124006
  },
  {
    "id":247,
    "streetName":"florastrasse",
    "longitude":7.589605,
    "latitude":47.5644569,
    "area":"residential",
    "speedlimit":30.0,
    "density":0.05054385,
    "dangerLevel":9.04371,
    "speedingCarsCount":749,
    "totalCarsCount":8282
  },
  {
    "id":249,
    "streetName":"p.merianstrass",
    "longitude":0.0,
    "latitude":0.0,
    "area":null,
    "speedlimit":0.0,
    "density":0.081479214,
    "dangerLevel":null,
    "speedingCarsCount":null,
    "totalCarsCount":13351
  },
  {
    "id":250,
    "streetName":"1schäferstrasse",
    "longitude":0.0,
    "latitude":0.0,
    "area":null,
    "speedlimit":0.0,
    "density":0.027853431,
    "dangerLevel":null,
    "speedingCarsCount":null,
    "totalCarsCount":4564
  },
  {
    "id":251,
    "streetName":"klingelbergstr",
    "longitude":7.581108,
    "latitude":47.5620759,
    "area":"secondary",
    "speedlimit":50.0,
    "density":0.24295466,
    "dangerLevel":0.946998,
    "speedingCarsCount":377,
    "totalCarsCount":39810
  },
  {
    "id":255,
    "streetName":"waltersgrabenw",
    "longitude":0.0,
    "latitude":0.0,
    "area":null,
    "speedlimit":0.0,
    "density":0.156465,
    "dangerLevel":null,
    "speedingCarsCount":null,
    "totalCarsCount":25638
  },
  {
    "id":257,
    "streetName":"falkensteinerstr",
    "longitude":7.6019255,
    "latitude":47.539976,
    "area":"residential",
    "speedlimit":30.0,
    "density":0.041755736,
    "dangerLevel":14.7618,
    "speedingCarsCount":1010,
    "totalCarsCount":6842
  },
  {
    "id":258,
    "streetName":"muelhauserstr",
    "longitude":7.5740571,
    "latitude":47.5654747,
    "area":"tertiary",
    "speedlimit":-1.0,
    "density":0.42392263,
    "dangerLevel":null,
    "speedingCarsCount":69463,
    "totalCarsCount":69463
  },
  {
    "id":263,
    "streetName":"mauerstrasse",
    "longitude":7.5956534,
    "latitude":47.5737463,
    "area":"secondary",
    "speedlimit":50.0,
    "density":0.3520798,
    "dangerLevel":44.305,
    "speedingCarsCount":25560,
    "totalCarsCount":57691
  },
  {
    "id":265,
    "streetName":"marschalkenstr",
    "longitude":7.5748191,
    "latitude":47.5509418,
    "area":"residential",
    "speedlimit":30.0,
    "density":0.06689949,
    "dangerLevel":3.13811,
    "speedingCarsCount":344,
    "totalCarsCount":10962
  },
  {
    "id":267,
    "streetName":"luzernerringb",
    "longitude":0.0,
    "latitude":0.0,
    "area":null,
    "speedlimit":0.0,
    "density":0.5425133,
    "dangerLevel":null,
    "speedingCarsCount":null,
    "totalCarsCount":88895
  },
  {
    "id":268,
    "streetName":"kleinhuenigera",
    "longitude":0.0,
    "latitude":0.0,
    "area":null,
    "speedlimit":0.0,
    "density":0.94002885,
    "dangerLevel":null,
    "speedingCarsCount":null,
    "totalCarsCount":154031
  },
  {
    "id":269,
    "streetName":"feldbergstrasse",
    "longitude":7.5880998,
    "latitude":47.5656286,
    "area":"secondary",
    "speedlimit":50.0,
    "density":0.99717,
    "dangerLevel":17.0159,
    "speedingCarsCount":27803,
    "totalCarsCount":163394
  },
  {
    "id":274,
    "streetName":"brennerstrasse",
    "longitude":7.5736149,
    "latitude":47.5518179,
    "area":"tertiary",
    "speedlimit":50.0,
    "density":0.5732656,
    "dangerLevel":14.5506,
    "speedingCarsCount":13668,
    "totalCarsCount":93934
  },
  {
    "id":276,
    "streetName":"blumerain",
    "longitude":0.0,
    "latitude":0.0,
    "area":null,
    "speedlimit":0.0,
    "density":0.55222297,
    "dangerLevel":null,
    "speedingCarsCount":null,
    "totalCarsCount":90486
  },
  {
    "id":277,
    "streetName":"wettsteinallee",
    "longitude":7.6061461,
    "latitude":47.5613035,
    "area":"secondary",
    "speedlimit":50.0,
    "density":0.3236039,
    "dangerLevel":17.7897,
    "speedingCarsCount":9433,
    "totalCarsCount":53025
  },
  {
    "id":280,
    "streetName":"ring",
    "longitude":-70.2961584,
    "latitude":-18.4754541,
    "area":"residential",
    "speedlimit":-1.0,
    "density":0.07140341,
    "dangerLevel":null,
    "speedingCarsCount":11700,
    "totalCarsCount":11700
  },
  {
    "id":281,
    "streetName":"sieglinweg",
    "longitude":7.6491236,
    "latitude":47.5828018,
    "area":"residential",
    "speedlimit":-1.0,
    "density":0.031728745,
    "dangerLevel":null,
    "speedingCarsCount":5199,
    "totalCarsCount":5199
  },
  {
    "id":282,
    "streetName":"realpstrasse",
    "longitude":7.5682587,
    "latitude":47.5491274,
    "area":"residential",
    "speedlimit":30.0,
    "density":0.016746234,
    "dangerLevel":10.1312,
    "speedingCarsCount":278,
    "totalCarsCount":2744
  },
  {
    "id":283,
    "streetName":"zeughausstrass",
    "longitude":0.0,
    "latitude":0.0,
    "area":null,
    "speedlimit":0.0,
    "density":0.46952316,
    "dangerLevel":null,
    "speedingCarsCount":null,
    "totalCarsCount":76935
  },
  {
    "id":287,
    "streetName":"jacburckhardt",
    "longitude":0.0,
    "latitude":0.0,
    "area":null,
    "speedlimit":0.0,
    "density":0.09802406,
    "dangerLevel":null,
    "speedingCarsCount":null,
    "totalCarsCount":16062
  },
  {
    "id":288,
    "streetName":"rheingasse",
    "longitude":7.5915288,
    "latitude":47.5605763,
    "area":"residential",
    "speedlimit":20.0,
    "density":0.1690674,
    "dangerLevel":53.5826,
    "speedingCarsCount":14844,
    "totalCarsCount":27703
  },
  {
    "id":290,
    "streetName":"hochbergerstrass",
    "longitude":0.0,
    "latitude":0.0,
    "area":null,
    "speedlimit":0.0,
    "density":1.2720059,
    "dangerLevel":null,
    "speedingCarsCount":null,
    "totalCarsCount":208428
  },
  {
    "id":291,
    "streetName":"wasserstrasse",
    "longitude":7.5791879,
    "latitude":47.5694358,
    "area":"residential",
    "speedlimit":20.0,
    "density":0.038142845,
    "dangerLevel":19.536,
    "speedingCarsCount":1221,
    "totalCarsCount":6250
  },
  {
    "id":293,
    "streetName":"immenbachstras",
    "longitude":0.0,
    "latitude":0.0,
    "area":null,
    "speedlimit":0.0,
    "density":0.028597979,
    "dangerLevel":null,
    "speedingCarsCount":null,
    "totalCarsCount":4686
  },
  {
    "id":295,
    "streetName":"hauensteinerst",
    "longitude":0.0,
    "latitude":0.0,
    "area":null,
    "speedlimit":0.0,
    "density":0.020786325,
    "dangerLevel":null,
    "speedingCarsCount":null,
    "totalCarsCount":3406
  },
  {
    "id":296,
    "streetName":"erlenmattstr",
    "longitude":7.601991,
    "latitude":47.5702475,
    "area":"living_street",
    "speedlimit":20.0,
    "density":0.040358182,
    "dangerLevel":57.886,
    "speedingCarsCount":3828,
    "totalCarsCount":6613
  },
  {
    "id":299,
    "streetName":"steinengraben",
    "longitude":7.585543,
    "latitude":47.5541593,
    "area":"secondary",
    "speedlimit":50.0,
    "density":0.35131696,
    "dangerLevel":28.1468,
    "speedingCarsCount":16203,
    "totalCarsCount":57566
  },
  {
    "id":301,
    "streetName":"rehhagstrasse",
    "longitude":7.5894753,
    "latitude":47.5349014,
    "area":"unclassified",
    "speedlimit":30.0,
    "density":0.0683947,
    "dangerLevel":61.9167,
    "speedingCarsCount":6939,
    "totalCarsCount":11207
  },
  {
    "id":302,
    "streetName":"friedensgasse",
    "longitude":7.577579,
    "latitude":47.5621001,
    "area":"residential",
    "speedlimit":30.0,
    "density":0.053601373,
    "dangerLevel":0.398497,
    "speedingCarsCount":35,
    "totalCarsCount":8783
  },
  {
    "id":305,
    "streetName":"bundesstrasse",
    "longitude":7.5762761,
    "latitude":47.5523316,
    "area":"secondary",
    "speedlimit":50.0,
    "density":0.6488922,
    "dangerLevel":12.4071,
    "speedingCarsCount":13192,
    "totalCarsCount":106326
  },
  {
    "id":311,
    "streetName":"rheinacker",
    "longitude":7.6256135,
    "latitude":47.5632674,
    "area":"residential",
    "speedlimit":-1.0,
    "density":0.07571813,
    "dangerLevel":null,
    "speedingCarsCount":12407,
    "totalCarsCount":12407
  },
  {
    "id":312,
    "streetName":"spalenvorstadt",
    "longitude":7.5809981,
    "latitude":47.5583056,
    "area":"residential",
    "speedlimit":30.0,
    "density":0.18197493,
    "dangerLevel":12.8178,
    "speedingCarsCount":3822,
    "totalCarsCount":29818
  },
  {
    "id":315,
    "streetName":"rtr_1",
    "longitude":0.0,
    "latitude":0.0,
    "area":null,
    "speedlimit":0.0,
    "density":null,
    "dangerLevel":null,
    "speedingCarsCount":null,
    "totalCarsCount":null
  },
  {
    "id":317,
    "streetName":"neudorfstrasse",
    "longitude":7.5664844,
    "latitude":47.5738496,
    "area":"tertiary",
    "speedlimit":-1.0,
    "density":0.33392993,
    "dangerLevel":null,
    "speedingCarsCount":54717,
    "totalCarsCount":54717
  },
  {
    "id":319,
    "streetName":"paradieshofstr",
    "longitude":7.5593936,
    "latitude":47.5489766,
    "area":"residential",
    "speedlimit":30.0,
    "density":0.021237936,
    "dangerLevel":27.9885,
    "speedingCarsCount":974,
    "totalCarsCount":3480
  },
  {
    "id":322,
    "streetName":"hackbergstrass",
    "longitude":0.0,
    "latitude":0.0,
    "area":null,
    "speedlimit":0.0,
    "density":0.017710486,
    "dangerLevel":null,
    "speedingCarsCount":null,
    "totalCarsCount":2902
  },
  {
    "id":325,
    "streetName":"st.alban-vorst",
    "longitude":0.0,
    "latitude":0.0,
    "area":null,
    "speedlimit":0.0,
    "density":0.21554065,
    "dangerLevel":null,
    "speedingCarsCount":null,
    "totalCarsCount":35318
  },
  {
    "id":326,
    "streetName":"rebgaaae",
    "longitude":0.0,
    "latitude":0.0,
    "area":null,
    "speedlimit":0.0,
    "density":0.16137779,
    "dangerLevel":null,
    "speedingCarsCount":null,
    "totalCarsCount":26443
  },
  {
    "id":329,
    "streetName":"rufacherstrass",
    "longitude":0.0,
    "latitude":0.0,
    "area":null,
    "speedlimit":0.0,
    "density":0.03431025,
    "dangerLevel":null,
    "speedingCarsCount":null,
    "totalCarsCount":5622
  },
  {
    "id":332,
    "streetName":"allmendstrasse",
    "longitude":7.6215104,
    "latitude":47.5658609,
    "area":"secondary",
    "speedlimit":40.0,
    "density":0.040950157,
    "dangerLevel":6.30402,
    "speedingCarsCount":423,
    "totalCarsCount":6710
  },
  {
    "id":334,
    "streetName":"vis",
    "longitude":0.0,
    "latitude":0.0,
    "area":null,
    "speedlimit":0.0,
    "density":0.063445285,
    "dangerLevel":null,
    "speedingCarsCount":null,
    "totalCarsCount":10396
  },
  {
    "id":335,
    "streetName":"1essigstrasse",
    "longitude":0.0,
    "latitude":0.0,
    "area":null,
    "speedlimit":0.0,
    "density":0.01983428,
    "dangerLevel":null,
    "speedingCarsCount":null,
    "totalCarsCount":3250
  },
  {
    "id":338,
    "streetName":"efringerstrass",
    "longitude":0.0,
    "latitude":0.0,
    "area":null,
    "speedlimit":0.0,
    "density":0.108264655,
    "dangerLevel":null,
    "speedingCarsCount":null,
    "totalCarsCount":17740
  },
  {
    "id":343,
    "streetName":"petersgraben",
    "longitude":7.5859191,
    "latitude":47.5613581,
    "area":"residential",
    "speedlimit":30.0,
    "density":0.14244674,
    "dangerLevel":59.9203,
    "speedingCarsCount":13986,
    "totalCarsCount":23341
  },
  {
    "id":345,
    "streetName":"kleinhueninge",
    "longitude":0.0,
    "latitude":0.0,
    "area":null,
    "speedlimit":0.0,
    "density":0.13689925,
    "dangerLevel":null,
    "speedingCarsCount":null,
    "totalCarsCount":22432
  },
  {
    "id":347,
    "streetName":"dittingerstras",
    "longitude":0.0,
    "latitude":0.0,
    "area":null,
    "speedlimit":0.0,
    "density":0.16570471,
    "dangerLevel":null,
    "speedingCarsCount":null,
    "totalCarsCount":27152
  },
  {
    "id":348,
    "streetName":"1grenzacherwe",
    "longitude":0.0,
    "latitude":0.0,
    "area":null,
    "speedlimit":0.0,
    "density":0.045112304,
    "dangerLevel":null,
    "speedingCarsCount":null,
    "totalCarsCount":7392
  },
  {
    "id":351,
    "streetName":"schweizergasse",
    "longitude":7.5766984,
    "latitude":47.5499646,
    "area":"residential",
    "speedlimit":30.0,
    "density":0.025796767,
    "dangerLevel":0.378519,
    "speedingCarsCount":16,
    "totalCarsCount":4227
  },
  {
    "id":352,
    "streetName":"fatiostrasse",
    "longitude":7.5800785,
    "latitude":47.5672081,
    "area":"residential",
    "speedlimit":-1.0,
    "density":0.052417424,
    "dangerLevel":null,
    "speedingCarsCount":8589,
    "totalCarsCount":8589
  },
  {
    "id":353,
    "streetName":"bruderholzstra",
    "longitude":0.0,
    "latitude":0.0,
    "area":null,
    "speedlimit":0.0,
    "density":0.22440809,
    "dangerLevel":null,
    "speedingCarsCount":null,
    "totalCarsCount":36771
  },
  {
    "id":357,
    "streetName":"2birsstrasse",
    "longitude":0.0,
    "latitude":0.0,
    "area":null,
    "speedlimit":0.0,
    "density":0.23593637,
    "dangerLevel":null,
    "speedingCarsCount":null,
    "totalCarsCount":38660
  },
  {
    "id":362,
    "streetName":"kleinhkleinhnkle",
    "longitude":0.0,
    "latitude":0.0,
    "area":null,
    "speedlimit":0.0,
    "density":0.48634875,
    "dangerLevel":null,
    "speedingCarsCount":null,
    "totalCarsCount":79692
  },
  {
    "id":363,
    "streetName":"sempacherstras",
    "longitude":0.0,
    "latitude":0.0,
    "area":null,
    "speedlimit":0.0,
    "density":0.0782325,
    "dangerLevel":null,
    "speedingCarsCount":null,
    "totalCarsCount":12819
  },
  {
    "id":365,
    "streetName":"nauenstrasse",
    "longitude":7.5936259,
    "latitude":47.5471695,
    "area":"primary",
    "speedlimit":50.0,
    "density":2.4376085,
    "dangerLevel":7.69188,
    "speedingCarsCount":30723,
    "totalCarsCount":399421
  },
  {
    "id":366,
    "streetName":"winkelriedplatz",
    "longitude":7.5880527,
    "latitude":47.5433322,
    "area":"residential",
    "speedlimit":-1.0,
    "density":0.04524657,
    "dangerLevel":null,
    "speedingCarsCount":7414,
    "totalCarsCount":7414
  },
  {
    "id":370,
    "streetName":"eulerstrasse",
    "longitude":7.5813378,
    "latitude":47.5549146,
    "area":"residential",
    "speedlimit":-1.0,
    "density":0.27799726,
    "dangerLevel":null,
    "speedingCarsCount":45552,
    "totalCarsCount":45552
  },
  {
    "id":371,
    "streetName":"stjohanns-vor",
    "longitude":0.0,
    "latitude":0.0,
    "area":null,
    "speedlimit":0.0,
    "density":0.1863751,
    "dangerLevel":null,
    "speedingCarsCount":null,
    "totalCarsCount":30539
  },
  {
    "id":373,
    "streetName":"spalenring",
    "longitude":7.5766865,
    "latitude":47.5536545,
    "area":"primary",
    "speedlimit":50.0,
    "density":0.68404466,
    "dangerLevel":31.5517,
    "speedingCarsCount":35365,
    "totalCarsCount":112086
  },
  {
    "id":376,
    "streetName":"spitalstrasse",
    "longitude":7.5819992,
    "latitude":47.5640205,
    "area":"tertiary",
    "speedlimit":50.0,
    "density":0.49137747,
    "dangerLevel":0.871876,
    "speedingCarsCount":702,
    "totalCarsCount":80516
  },
  {
    "id":379,
    "streetName":"d",
    "longitude":7.6054736,
    "latitude":47.56409425,
    "area":"yes",
    "speedlimit":-1.0,
    "density":0.030953681,
    "dangerLevel":null,
    "speedingCarsCount":5072,
    "totalCarsCount":5072
  },
  {
    "id":381,
    "streetName":"li",
    "longitude":-70.5147295995302,
    "latitude":-33.32921345,
    "area":"residential",
    "speedlimit":-1.0,
    "density":0.13149822,
    "dangerLevel":null,
    "speedingCarsCount":21547,
    "totalCarsCount":21547
  },
  {
    "id":384,
    "streetName":"reservoirstrasse",
    "longitude":7.5951665,
    "latitude":47.5291245,
    "area":"unclassified",
    "speedlimit":-1.0,
    "density":0.034615394,
    "dangerLevel":null,
    "speedingCarsCount":5672,
    "totalCarsCount":5672
  },
  {
    "id":389,
    "streetName":"ruemelinsbachweg",
    "longitude":0.0,
    "latitude":0.0,
    "area":null,
    "speedlimit":0.0,
    "density":0.045881268,
    "dangerLevel":null,
    "speedingCarsCount":null,
    "totalCarsCount":7518
  },
  {
    "id":393,
    "streetName":"laufenstrasse",
    "longitude":7.5993407,
    "latitude":47.5418414,
    "area":"residential",
    "speedlimit":30.0,
    "density":0.056909125,
    "dangerLevel":1.96247,
    "speedingCarsCount":183,
    "totalCarsCount":9325
  },
  {
    "id":394,
    "streetName":"1reservoirstrass",
    "longitude":0.0,
    "latitude":0.0,
    "area":null,
    "speedlimit":0.0,
    "density":0.021768885,
    "dangerLevel":null,
    "speedingCarsCount":null,
    "totalCarsCount":3567
  },
  {
    "id":396,
    "streetName":"1ahonstrasse",
    "longitude":0.0,
    "latitude":0.0,
    "area":null,
    "speedlimit":0.0,
    "density":0.15618427,
    "dangerLevel":null,
    "speedingCarsCount":null,
    "totalCarsCount":25592
  },
  {
    "id":400,
    "streetName":"1holeestrasse",
    "longitude":0.0,
    "latitude":0.0,
    "area":null,
    "speedlimit":0.0,
    "density":0.3608008,
    "dangerLevel":null,
    "speedingCarsCount":null,
    "totalCarsCount":59120
  },
  {
    "id":402,
    "streetName":"thiersteinerra",
    "longitude":0.0,
    "latitude":0.0,
    "area":null,
    "speedlimit":0.0,
    "density":0.011809025,
    "dangerLevel":null,
    "speedingCarsCount":null,
    "totalCarsCount":1935
  },
  {
    "id":403,
    "streetName":"gasstrasse",
    "longitude":7.5749536,
    "latitude":47.5691289,
    "area":"residential",
    "speedlimit":30.0,
    "density":0.05380887,
    "dangerLevel":26.0406,
    "speedingCarsCount":2296,
    "totalCarsCount":8817
  },
  {
    "id":406,
    "streetName":"felsplattenstr",
    "longitude":7.5591427,
    "latitude":47.5644512,
    "area":"residential",
    "speedlimit":-1.0,
    "density":0.4668135,
    "dangerLevel":null,
    "speedingCarsCount":76491,
    "totalCarsCount":76491
  },
  {
    "id":407,
    "streetName":"klingentalstrass",
    "longitude":0.0,
    "latitude":0.0,
    "area":null,
    "speedlimit":0.0,
    "density":0.38001868,
    "dangerLevel":null,
    "speedingCarsCount":null,
    "totalCarsCount":62269
  },
  {
    "id":408,
    "streetName":"bischoffweg",
    "longitude":7.6601864,
    "latitude":47.590517,
    "area":"residential",
    "speedlimit":-1.0,
    "density":0.02267821,
    "dangerLevel":null,
    "speedingCarsCount":3716,
    "totalCarsCount":3716
  },
  {
    "id":413,
    "streetName":"inselstrasse",
    "longitude":7.5898078,
    "latitude":47.5773287,
    "area":"residential",
    "speedlimit":-1.0,
    "density":0.06721074,
    "dangerLevel":null,
    "speedingCarsCount":11013,
    "totalCarsCount":11013
  },
  {
    "id":418,
    "streetName":"holeestrasse",
    "longitude":7.5728802,
    "latitude":47.5447481,
    "area":"primary",
    "speedlimit":50.0,
    "density":0.73106104,
    "dangerLevel":30.2955,
    "speedingCarsCount":36291,
    "totalCarsCount":119790
  },
  {
    "id":420,
    "streetName":"drosselstrasse",
    "longitude":7.5885657,
    "latitude":47.5381735,
    "area":"residential",
    "speedlimit":-1.0,
    "density":0.026236175,
    "dangerLevel":null,
    "speedingCarsCount":4299,
    "totalCarsCount":4299
  },
  {
    "id":422,
    "streetName":"niederholzstrass",
    "longitude":0.0,
    "latitude":0.0,
    "area":null,
    "speedlimit":0.0,
    "density":0.044337243,
    "dangerLevel":null,
    "speedingCarsCount":null,
    "totalCarsCount":7265
  },
  {
    "id":423,
    "streetName":"wettsteinbrück",
    "longitude":0.0,
    "latitude":0.0,
    "area":null,
    "speedlimit":0.0,
    "density":1.5210818,
    "dangerLevel":null,
    "speedingCarsCount":null,
    "totalCarsCount":249241
  },
  {
    "id":425,
    "streetName":"1horburgstrasse",
    "longitude":0.0,
    "latitude":0.0,
    "area":null,
    "speedlimit":0.0,
    "density":0.17727573,
    "dangerLevel":null,
    "speedingCarsCount":null,
    "totalCarsCount":29048
  },
  {
    "id":434,
    "streetName":"baeumliweg",
    "longitude":7.6582521,
    "latitude":47.5880559,
    "area":"residential",
    "speedlimit":-1.0,
    "density":0.059460122,
    "dangerLevel":null,
    "speedingCarsCount":9743,
    "totalCarsCount":9743
  },
  {
    "id":435,
    "streetName":"vogesenstrasse",
    "longitude":7.5749536,
    "latitude":47.5691289,
    "area":"residential",
    "speedlimit":30.0,
    "density":0.06479401,
    "dangerLevel":22.0495,
    "speedingCarsCount":2341,
    "totalCarsCount":10617
  },
  {
    "id":436,
    "streetName":"st.alban-ring",
    "longitude":7.6094296,
    "latitude":47.5482814,
    "area":"residential",
    "speedlimit":30.0,
    "density":0.06202332,
    "dangerLevel":61.8223,
    "speedingCarsCount":6283,
    "totalCarsCount":10163
  },
  {
    "id":437,
    "streetName":"hirshalm",
    "longitude":7.6304021,
    "latitude":47.5712509,
    "area":"residential",
    "speedlimit":-1.0,
    "density":0.022000793,
    "dangerLevel":null,
    "speedingCarsCount":3605,
    "totalCarsCount":3605
  },
  {
    "id":438,
    "streetName":"grendelgasse",
    "longitude":7.639977,
    "latitude":47.5804715,
    "area":"residential",
    "speedlimit":30.0,
    "density":0.018815102,
    "dangerLevel":24.035,
    "speedingCarsCount":741,
    "totalCarsCount":3083
  },
  {
    "id":441,
    "streetName":"neuweilerstras",
    "longitude":0.0,
    "latitude":0.0,
    "area":null,
    "speedlimit":0.0,
    "density":0.7837286,
    "dangerLevel":null,
    "speedingCarsCount":null,
    "totalCarsCount":128420
  },
  {
    "id":444,
    "streetName":"leonhardstr",
    "longitude":7.5826725,
    "latitude":47.5343285,
    "area":"residential",
    "speedlimit":-1.0,
    "density":0.18969506,
    "dangerLevel":null,
    "speedingCarsCount":31083,
    "totalCarsCount":31083
  },
  {
    "id":445,
    "streetName":"ruetimeyerstrass",
    "longitude":0.0,
    "latitude":0.0,
    "area":null,
    "speedlimit":0.0,
    "density":0.4276576,
    "dangerLevel":null,
    "speedingCarsCount":null,
    "totalCarsCount":70075
  },
  {
    "id":446,
    "streetName":"dornacherstrasse",
    "longitude":7.5831584,
    "latitude":47.5457802,
    "area":"primary",
    "speedlimit":50.0,
    "density":0.7031588,
    "dangerLevel":1.12309,
    "speedingCarsCount":1294,
    "totalCarsCount":115218
  },
  {
    "id":450,
    "streetName":"b",
    "longitude":7.60448145336115,
    "latitude":47.563592,
    "area":"yes",
    "speedlimit":-1.0,
    "density":0.26624316,
    "dangerLevel":null,
    "speedingCarsCount":43626,
    "totalCarsCount":43626
  },
  {
    "id":453,
    "streetName":"liesbergerstra",
    "longitude":0.0,
    "latitude":0.0,
    "area":null,
    "speedlimit":0.0,
    "density":1.9875839,
    "dangerLevel":null,
    "speedingCarsCount":null,
    "totalCarsCount":325681
  },
  {
    "id":465,
    "streetName":"essigstrasse",
    "longitude":7.6398865,
    "latitude":47.5766803,
    "area":"residential",
    "speedlimit":30.0,
    "density":0.030740082,
    "dangerLevel":52.9879,
    "speedingCarsCount":2669,
    "totalCarsCount":5037
  },
  {
    "id":470,
    "streetName":"buechelstr",
    "longitude":7.613234,
    "latitude":47.5503471,
    "area":"residential",
    "speedlimit":-1.0,
    "density":0.008867449,
    "dangerLevel":null,
    "speedingCarsCount":1453,
    "totalCarsCount":1453
  },
  {
    "id":476,
    "streetName":"30",
    "longitude":0.0,
    "latitude":0.0,
    "area":null,
    "speedlimit":0.0,
    "density":0.07477829,
    "dangerLevel":null,
    "speedingCarsCount":null,
    "totalCarsCount":12253
  },
  {
    "id":477,
    "streetName":"erlenstrasse",
    "longitude":7.5988028,
    "latitude":47.5681117,
    "area":"residential",
    "speedlimit":-1.0,
    "density":0.5373686,
    "dangerLevel":null,
    "speedingCarsCount":88052,
    "totalCarsCount":88052
  },
  {
    "id":480,
    "streetName":"altrheinweg",
    "longitude":7.5873471,
    "latitude":47.5748825,
    "area":"residential",
    "speedlimit":-1.0,
    "density":0.21314833,
    "dangerLevel":null,
    "speedingCarsCount":34926,
    "totalCarsCount":34926
  },
  {
    "id":481,
    "streetName":"niederholzstra",
    "longitude":0.0,
    "latitude":0.0,
    "area":null,
    "speedlimit":0.0,
    "density":0.039064374,
    "dangerLevel":null,
    "speedingCarsCount":null,
    "totalCarsCount":6401
  },
  {
    "id":482,
    "streetName":"1wasserstelzenwe",
    "longitude":0.0,
    "latitude":0.0,
    "area":null,
    "speedlimit":0.0,
    "density":0.03946106,
    "dangerLevel":null,
    "speedingCarsCount":null,
    "totalCarsCount":6466
  },
  {
    "id":490,
    "streetName":"niederholzb",
    "longitude":0.0,
    "latitude":0.0,
    "area":null,
    "speedlimit":0.0,
    "density":0.01953524,
    "dangerLevel":null,
    "speedingCarsCount":null,
    "totalCarsCount":3201
  },
  {
    "id":491,
    "streetName":"saengergasse",
    "longitude":7.5718167,
    "latitude":47.556008,
    "area":"residential",
    "speedlimit":-1.0,
    "density":0.016746234,
    "dangerLevel":null,
    "speedingCarsCount":2744,
    "totalCarsCount":2744
  },
  {
    "id":496,
    "streetName":"gellertstrasse",
    "longitude":7.6185954,
    "latitude":47.5418785,
    "area":"primary",
    "speedlimit":50.0,
    "density":0.1047372,
    "dangerLevel":1.09544,
    "speedingCarsCount":188,
    "totalCarsCount":17162
  },
  {
    "id":500,
    "streetName":"strkandererstr",
    "longitude":0.0,
    "latitude":0.0,
    "area":null,
    "speedlimit":0.0,
    "density":0.09951925,
    "dangerLevel":null,
    "speedingCarsCount":null,
    "totalCarsCount":16307
  },
  {
    "id":501,
    "streetName":"herbergsgasse",
    "longitude":7.5850954,
    "latitude":47.5605165,
    "area":"unclassified",
    "speedlimit":30.0,
    "density":0.030642437,
    "dangerLevel":2.21072,
    "speedingCarsCount":111,
    "totalCarsCount":5021
  },
  {
    "id":502,
    "streetName":"schaffhauserrh",
    "longitude":0.0,
    "latitude":0.0,
    "area":null,
    "speedlimit":0.0,
    "density":0.057806242,
    "dangerLevel":null,
    "speedingCarsCount":null,
    "totalCarsCount":9472
  },
  {
    "id":511,
    "streetName":"53",
    "longitude":-70.2961584,
    "latitude":-18.4754541,
    "area":"residential",
    "speedlimit":-1.0,
    "density":0.06952372,
    "dangerLevel":null,
    "speedingCarsCount":11392,
    "totalCarsCount":11392
  },
  {
    "id":513,
    "streetName":"höhenweg",
    "longitude":7.5798689,
    "latitude":47.5460631,
    "area":"residential",
    "speedlimit":30.0,
    "density":0.11698563,
    "dangerLevel":68.2926,
    "speedingCarsCount":13091,
    "totalCarsCount":19169
  },
  {
    "id":519,
    "streetName":"markgräflerst",
    "longitude":0.0,
    "latitude":0.0,
    "area":null,
    "speedlimit":0.0,
    "density":0.058282267,
    "dangerLevel":null,
    "speedingCarsCount":null,
    "totalCarsCount":9550
  },
  {
    "id":520,
    "streetName":"belforterstras",
    "longitude":0.0,
    "latitude":0.0,
    "area":null,
    "speedlimit":0.0,
    "density":0.38751912,
    "dangerLevel":null,
    "speedingCarsCount":null,
    "totalCarsCount":63498
  },
  {
    "id":521,
    "streetName":"metzerstrasse",
    "longitude":7.5739394,
    "latitude":47.5655524,
    "area":"residential",
    "speedlimit":-1.0,
    "density":0.37545377,
    "dangerLevel":null,
    "speedingCarsCount":61521,
    "totalCarsCount":61521
  },
  {
    "id":522,
    "streetName":"gwenkstrasse",
    "longitude":0.0,
    "latitude":0.0,
    "area":null,
    "speedlimit":0.0,
    "density":0.25101653,
    "dangerLevel":null,
    "speedingCarsCount":null,
    "totalCarsCount":41131
  },
  {
    "id":529,
    "streetName":"schlachthofstras",
    "longitude":0.0,
    "latitude":0.0,
    "area":null,
    "speedlimit":0.0,
    "density":0.42319638,
    "dangerLevel":null,
    "speedingCarsCount":null,
    "totalCarsCount":69344
  },
  {
    "id":537,
    "streetName":"oberwilerstr",
    "longitude":7.5754356,
    "latitude":47.5447138,
    "area":"secondary",
    "speedlimit":-1.0,
    "density":0.63847464,
    "dangerLevel":null,
    "speedingCarsCount":104619,
    "totalCarsCount":104619
  },
  {
    "id":542,
    "streetName":"freuburgerstrass",
    "longitude":0.0,
    "latitude":0.0,
    "area":null,
    "speedlimit":0.0,
    "density":1.6123315,
    "dangerLevel":null,
    "speedingCarsCount":null,
    "totalCarsCount":264193
  },
  {
    "id":544,
    "streetName":"wiesenstrasse",
    "longitude":7.5921315,
    "latitude":47.5771638,
    "area":"residential",
    "speedlimit":-1.0,
    "density":0.03531112,
    "dangerLevel":null,
    "speedingCarsCount":5786,
    "totalCarsCount":5786
  },
  {
    "id":552,
    "streetName":"horburgstrasse",
    "longitude":7.5974417,
    "latitude":47.5719589,
    "area":"residential",
    "speedlimit":50.0,
    "density":0.93104553,
    "dangerLevel":5.15669,
    "speedingCarsCount":7867,
    "totalCarsCount":152559
  },
  {
    "id":556,
    "streetName":"",
    "longitude":0.0,
    "latitude":0.0,
    "area":null,
    "speedlimit":0.0,
    "density":null,
    "dangerLevel":null,
    "speedingCarsCount":null,
    "totalCarsCount":null
  },
  {
    "id":557,
    "streetName":"utengasse",
    "longitude":7.5932296,
    "latitude":47.5600553,
    "area":"residential",
    "speedlimit":30.0,
    "density":0.0750346,
    "dangerLevel":4.52216,
    "speedingCarsCount":556,
    "totalCarsCount":12295
  },
  {
    "id":565,
    "streetName":"gaertnerstr",
    "longitude":7.592409,
    "latitude":47.5794836,
    "area":"tertiary",
    "speedlimit":50.0,
    "density":0.23013867,
    "dangerLevel":20.4667,
    "speedingCarsCount":7718,
    "totalCarsCount":37710
  },
  {
    "id":575,
    "streetName":"entenweidstrasse",
    "longitude":7.5736605,
    "latitude":47.5690479,
    "area":"residential",
    "speedlimit":50.0,
    "density":0.4041799,
    "dangerLevel":27.9836,
    "speedingCarsCount":18533,
    "totalCarsCount":66228
  },
  {
    "id":578,
    "streetName":"belchenstrasse",
    "longitude":7.5738559,
    "latitude":47.5543088,
    "area":"residential",
    "speedlimit":-1.0,
    "density":0.020780222,
    "dangerLevel":null,
    "speedingCarsCount":3405,
    "totalCarsCount":3405
  },
  {
    "id":590,
    "streetName":"kilchgrundstr",
    "longitude":7.6443908,
    "latitude":47.5770031,
    "area":"residential",
    "speedlimit":-1.0,
    "density":0.09708422,
    "dangerLevel":null,
    "speedingCarsCount":15908,
    "totalCarsCount":15908
  },
  {
    "id":591,
    "streetName":"gotenstrasse",
    "longitude":7.629474,
    "latitude":47.5699428,
    "area":"residential",
    "speedlimit":-1.0,
    "density":0.2964645,
    "dangerLevel":null,
    "speedingCarsCount":48578,
    "totalCarsCount":48578
  },
  {
    "id":592,
    "streetName":"schuetzenmatts",
    "longitude":0.0,
    "latitude":0.0,
    "area":null,
    "speedlimit":0.0,
    "density":0.31649408,
    "dangerLevel":null,
    "speedingCarsCount":null,
    "totalCarsCount":51860
  },
  {
    "id":595,
    "streetName":"kleinhueninger",
    "longitude":7.5918296,
    "latitude":47.5814467,
    "area":"residential",
    "speedlimit":-1.0,
    "density":0.8853778,
    "dangerLevel":null,
    "speedingCarsCount":145076,
    "totalCarsCount":145076
  },
  {
    "id":609,
    "streetName":"schaeublinstr",
    "longitude":7.5840325,
    "latitude":47.5342201,
    "area":"residential",
    "speedlimit":-1.0,
    "density":0.029983329,
    "dangerLevel":null,
    "speedingCarsCount":4913,
    "totalCarsCount":4913
  },
  {
    "id":613,
    "streetName":"lehenmattstras",
    "longitude":0.0,
    "latitude":0.0,
    "area":null,
    "speedlimit":0.0,
    "density":0.18271948,
    "dangerLevel":null,
    "speedingCarsCount":null,
    "totalCarsCount":29940
  },
  {
    "id":614,
    "streetName":"erlenmattstras",
    "longitude":0.0,
    "latitude":0.0,
    "area":null,
    "speedlimit":0.0,
    "density":0.04742529,
    "dangerLevel":null,
    "speedingCarsCount":null,
    "totalCarsCount":7771
  },
  {
    "id":618,
    "streetName":"baiergasse",
    "longitude":7.669219,
    "latitude":47.5697393,
    "area":"residential",
    "speedlimit":-1.0,
    "density":0.0019773252,
    "dangerLevel":null,
    "speedingCarsCount":324,
    "totalCarsCount":324
  },
  {
    "id":620,
    "streetName":"steingrubenwe",
    "longitude":0.0,
    "latitude":0.0,
    "area":null,
    "speedlimit":0.0,
    "density":0.0765298,
    "dangerLevel":null,
    "speedingCarsCount":null,
    "totalCarsCount":12540
  },
  {
    "id":632,
    "streetName":"welschmattstra",
    "longitude":0.0,
    "latitude":0.0,
    "area":null,
    "speedlimit":0.0,
    "density":0.036238752,
    "dangerLevel":null,
    "speedingCarsCount":null,
    "totalCarsCount":5938
  },
  {
    "id":642,
    "streetName":"vogelsangstr",
    "longitude":7.6050562,
    "latitude":47.5628184,
    "area":"residential",
    "speedlimit":30.0,
    "density":0.01940708,
    "dangerLevel":17.4214,
    "speedingCarsCount":554,
    "totalCarsCount":3180
  },
  {
    "id":645,
    "streetName":"bahnhofstrasse",
    "longitude":7.6476231,
    "latitude":47.5332132,
    "area":"secondary",
    "speedlimit":50.0,
    "density":0.25705838,
    "dangerLevel":0.0474823,
    "speedingCarsCount":20,
    "totalCarsCount":42121
  },
  {
    "id":655,
    "streetName":"st.jakobs-str",
    "longitude":7.6032627,
    "latitude":47.5450249,
    "area":"primary",
    "speedlimit":50.0,
    "density":0.031002503,
    "dangerLevel":null,
    "speedingCarsCount":null,
    "totalCarsCount":5080
  },
  {
    "id":661,
    "streetName":"riehenstrasse",
    "longitude":7.6140305,
    "latitude":47.5687784,
    "area":"primary",
    "speedlimit":50.0,
    "density":0.97912383,
    "dangerLevel":1.97897,
    "speedingCarsCount":3175,
    "totalCarsCount":160437
  },
  {
    "id":670,
    "streetName":"i,d.ziegelhoef",
    "longitude":0.0,
    "latitude":0.0,
    "area":null,
    "speedlimit":0.0,
    "density":null,
    "dangerLevel":null,
    "speedingCarsCount":null,
    "totalCarsCount":null
  },
  {
    "id":671,
    "streetName":"15",
    "longitude":0.0,
    "latitude":0.0,
    "area":null,
    "speedlimit":0.0,
    "density":0.016599765,
    "dangerLevel":null,
    "speedingCarsCount":null,
    "totalCarsCount":2720
  },
  {
    "id":673,
    "streetName":"muenchensteine",
    "longitude":0.0,
    "latitude":0.0,
    "area":null,
    "speedlimit":0.0,
    "density":0.6327013,
    "dangerLevel":null,
    "speedingCarsCount":null,
    "totalCarsCount":103673
  },
  {
    "id":679,
    "streetName":"bäumlihofstras",
    "longitude":0.0,
    "latitude":0.0,
    "area":null,
    "speedlimit":0.0,
    "density":0.63536215,
    "dangerLevel":null,
    "speedingCarsCount":null,
    "totalCarsCount":104109
  },
  {
    "id":683,
    "streetName":"kilometerwegl",
    "longitude":0.0,
    "latitude":0.0,
    "area":null,
    "speedlimit":0.0,
    "density":0.1964143,
    "dangerLevel":null,
    "speedingCarsCount":null,
    "totalCarsCount":32184
  },
  {
    "id":691,
    "streetName":"dorenbachviadu",
    "longitude":0.0,
    "latitude":0.0,
    "area":null,
    "speedlimit":0.0,
    "density":1.323862,
    "dangerLevel":null,
    "speedingCarsCount":null,
    "totalCarsCount":216925
  },
  {
    "id":692,
    "streetName":"hörnliallee",
    "longitude":7.6367095,
    "latitude":47.5684414,
    "area":"residential",
    "speedlimit":50.0,
    "density":0.711422,
    "dangerLevel":14.5618,
    "speedingCarsCount":16975,
    "totalCarsCount":116572
  },
  {
    "id":704,
    "streetName":"20",
    "longitude":0.0,
    "latitude":0.0,
    "area":null,
    "speedlimit":0.0,
    "density":0.15558618,
    "dangerLevel":null,
    "speedingCarsCount":null,
    "totalCarsCount":25494
  },
  {
    "id":709,
    "streetName":"kilchgrundstra",
    "longitude":0.0,
    "latitude":0.0,
    "area":null,
    "speedlimit":0.0,
    "density":0.09464308,
    "dangerLevel":null,
    "speedingCarsCount":null,
    "totalCarsCount":15508
  },
  {
    "id":718,
    "streetName":"auberg",
    "longitude":7.5845556,
    "latitude":47.5524916,
    "area":"secondary",
    "speedlimit":50.0,
    "density":0.47776812,
    "dangerLevel":2.37335,
    "speedingCarsCount":1858,
    "totalCarsCount":78286
  },
  {
    "id":737,
    "streetName":"westquaistras",
    "longitude":0.0,
    "latitude":0.0,
    "area":null,
    "speedlimit":0.0,
    "density":0.04469121,
    "dangerLevel":null,
    "speedingCarsCount":null,
    "totalCarsCount":7323
  }
]